[
    {
        "filename": "photo1.jpg",
        "latitude": 51.509830,
        "longitude": -0.118100,
        "date": "2024-12-31",
        "locationName": "Us walking back on Waterloo Bridge after the world's most worth it New Year's celebration"

    },
    {
        "filename": "photo2.jpg",
        "latitude": 26.167631,
        "longitude": 91.778809,
        "date": "2023-07-31",
        "locationName": "Akshar Foundation - July 31st. Both my necklace and shirt are cooked now "

    },
    {
        "filename": "photo3.jpg",
        "latitude": 51.757721,
        "longitude": -1.257630,
        "date": "2023-12-2",
        "locationName": "Me at the Ashmolean looking pregnant, michaelmas 2023 "

    },
    {
        "filename": "photo4.jpg",
        "latitude": 51.751869201660156,
        "longitude": -1.2564425468444824,
        "date": "2024-12-18",
        "locationName": "Chiang Mai - december last year"

    },
    {
        "filename": "photo5.jpg",
        "latitude": 51.7484743,
        "longitude": -1.2458893,
        "date": "2024-04-27",
        "locationName": "Hilda's ball with my wonky ass looking eyes"
    },
    {
        "filename": "photo6.jpg",
        "latitude": 51.480712,
        "longitude": -0.1112491,
        "date": "2024-08-17",
        "locationName": "Us in the sandwich shop near THomas's house, august 2024"
    },
    {
        "filename": "photo7.jpg",
        "latitude": 47.5153549,
        "longitude": 19.0818753,
        "date": "2024-09-15",
        "locationName": "Budapest - in the big park in the centre of the city"
    },
    {
        "filename": "photo8.jpg",
        "latitude": 51.75348096602363,
        "longitude": -1.265016705855433,
        "date": "2024-10-31",
        "locationName": "Halloween - you look really cute here - on the bridge to atik"
    },
    {
        "filename": "photo9.jpg",
        "latitude": 51.5127313,
        "longitude": -0.1385291,
        "date": "2024-10-19",
        "locationName": "Me and you at the world's best bar or sthg after your ECA internship finished"
    },
    {
        "filename": "photo10.jpg",
        "latitude": 51.7507163,
        "longitude": -1.2607586,
        "date": "2024-12-17",
        "locationName": "You mad at me on the way to BuzzGym - December 2024 "
    }
]